{"type": "FeatureCollection", "features": [{"geometry": {"coordinates": [-102.3176, 21.86248], "type": "Point"}, "type": "Feature", "properties": {"description": "premium: 19.99 - Actualizado el 2019-02-11 12:00:00", "image": "icogas.png", "title": "Muradas SA de CV"}}, {"geometry": {"coordinates": [-102.312, 21.89359], "type": "Point"}, "type": "Feature", "properties": {"description": "premium: 20.7 - Actualizado el 2019-02-10 00:00:00", "image": "icogas.png", "title": "MR SERVICIO, S.A. DE C.V."}}, {"geometry": {"coordinates": [-102.3108, 21.90746], "type": "Point"}, "type": "Feature", "properties": {"description": "premium: 20.78 - Actualizado el 2019-02-19 00:00:00", "image": "icogas.png", "title": "Unidad de Gasolineras, S.A. de C.V."}}, {"geometry": {"coordinates": [-102.3353, 21.86349], "type": "Point"}, "type": "Feature", "properties": {"description": "premium: 21.1 - Actualizado el 2019-01-18 20:00:00", "image": "icogas.png", "title": "SERVICIO PETROJUELOS S.A. DE C.V."}}, {"geometry": {"coordinates": [-102.2812, 21.87701], "type": "Point"}, "type": "Feature", "properties": {"description": "premium: 21.14 - Actualizado el 2019-02-16 06:30:00", "image": "icogas.png", "title": "SERVICIOS GUZMAN, S. A. "}}, {"geometry": {"coordinates": [-102.3169, 21.90174], "type": "Point"}, "type": "Feature", "properties": {"description": "premium: 22.15 - Actualizado el 2019-02-20 00:05:00", "image": "icogas.png", "title": "RED SIGLO XXI SA DE CV"}}, {"geometry": {"coordinates": [-102.299, 21.86435], "type": "Point"}, "type": "Feature", "properties": {"description": "regular: 19.5 - Actualizado el 2019-02-20 00:00:00", "image": "icogasverde.png", "title": "ESTACION DE SERVICIO HIDROCALIDA SA DE CV"}}, {"geometry": {"coordinates": [-102.3176, 21.86248], "type": "Point"}, "type": "Feature", "properties": {"description": "regular: 19.59 - Actualizado el 2019-02-19 13:42:00", "image": "icogas.png", "title": "Muradas SA de CV"}}, {"geometry": {"coordinates": [-102.2911, 21.87887], "type": "Point"}, "type": "Feature", "properties": {"description": "regular: 19.6 - Actualizado el 2019-02-16 15:00:00", "image": "icogas.png", "title": "SERVICIO LOMAS AGUASCALIENTES SA DE CV"}}, {"geometry": {"coordinates": [-102.3283, 21.90888], "type": "Point"}, "type": "Feature", "properties": {"description": "regular: 19.6 - Actualizado el 2019-02-16 15:00:00", "image": "icogas.png", "title": "TERCER ANILLO SA DE CV"}}, {"geometry": {"coordinates": [-102.3171, 21.8858], "type": "Point"}, "type": "Feature", "properties": {"description": "regular: 19.6, premium: 20.78 - Actualizado el 2019-02-16 15:00:00", "image": "icogas.png", "title": "TERCER ANILLO SA DE CV"}}, {"geometry": {"coordinates": [-102.2976, 21.9075], "type": "Point"}, "type": "Feature", "properties": {"description": "regular: 19.87 - Actualizado el 2019-02-18 10:30:00", "image": "icogas.png", "title": "ENERGIA Y SERVICIOS TERRA S.A. DE C.V."}}, {"geometry": {"coordinates": [-102.3274, 21.87259], "type": "Point"}, "type": "Feature", "properties": {"description": "regular: 19.88 - Actualizado el 2019-02-20 00:00:00", "image": "icogas.png", "title": "SUPERSERVICIO TERECAR, S.A. DE C.V."}}, {"geometry": {"coordinates": [-102.3303, 21.91467], "type": "Point"}, "type": "Feature", "properties": {"description": "regular: 19.9, premium: 21.01 - Actualizado el 2019-02-20 00:05:00", "image": "icogas.png", "title": "RED INTERGAS S. DE R.L. DE C.V."}}, {"geometry": {"coordinates": [-102.3098, 21.86848], "type": "Point"}, "type": "Feature", "properties": {"description": "regular: 19.92, premium: 20.3 - Actualizado el 2019-02-17 00:00:00", "image": "icogas.png", "title": "SERVICIOS GASOLINEROS EL CASTA\u00d1O, S.A. DE C.V."}}, {"geometry": {"coordinates": [-102.3108, 21.90746], "type": "Point"}, "type": "Feature", "properties": {"description": "regular: 19.94 - Actualizado el 2019-02-20 00:00:00", "image": "icogas.png", "title": "Unidad de Gasolineras, S.A. de C.V."}}, {"geometry": {"coordinates": [-102.3162, 21.85602], "type": "Point"}, "type": "Feature", "properties": {"description": "regular: 19.95, premium: 20.89 - Actualizado el 2019-02-20 00:00:00", "image": "icogas.png", "title": "Unidad de Gasolineras, S.A. de C.V."}}, {"geometry": {"coordinates": [-102.2791, 21.89848], "type": "Point"}, "type": "Feature", "properties": {"description": "regular: 19.95, premium: 21.1 - Actualizado el 2019-02-16 20:31:00", "image": "icogas.png", "title": "FORMULA GAS SA DE CV"}}, {"geometry": {"coordinates": [-102.312, 21.89359], "type": "Point"}, "type": "Feature", "properties": {"description": "regular: 19.98 - Actualizado el 2019-02-19 12:00:00", "image": "icogas.png", "title": "MR SERVICIO, S.A. DE C.V."}}, {"geometry": {"coordinates": [-102.318, 21.90923], "type": "Point"}, "type": "Feature", "properties": {"description": "regular: 19.99 - Actualizado el 2019-02-20 00:00:00", "image": "icogas.png", "title": "OPERADORA DE MINIESTACIONES COMBUSERV, S.A. DE C.V"}}, {"geometry": {"coordinates": [-102.2745, 21.89205], "type": "Point"}, "type": "Feature", "properties": {"description": "regular: 19.99, premium: 21.19 - Actualizado el 2019-02-19 00:00:00", "image": "icogas.png", "title": "Unidad de Gasolineras, S.A. de C.V."}}, {"geometry": {"coordinates": [-102.3127, 21.91659], "type": "Point"}, "type": "Feature", "properties": {"description": "regular: 20, premium: 20.85 - Actualizado el 2019-02-19 22:00:00", "image": "icogas.png", "title": "SERVICIOS DE COMBUSTIBLES DE OCCIDENTE S.A DE C.V."}}, {"geometry": {"coordinates": [-102.2919, 21.91145], "type": "Point"}, "type": "Feature", "properties": {"description": "regular: 20.03 - Actualizado el 2019-02-19 22:00:00", "image": "icogas.png", "title": "SERVICIOS Y COMERCIALIZADORA NACIONAL S.A. DE C.V."}}, {"geometry": {"coordinates": [-102.2973, 21.91797], "type": "Point"}, "type": "Feature", "properties": {"description": "regular: 20.07, premium: 21.24 - Actualizado el 2019-02-19 22:17:00", "image": "icogas.png", "title": "Estacion Custodia, S.A. de C.V."}}, {"geometry": {"coordinates": [-102.3178, 21.87228], "type": "Point"}, "type": "Feature", "properties": {"description": "regular: 20.09, premium: 20.89 - Actualizado el 2019-02-20 00:00:00", "image": "icogas.png", "title": "SERVICIOS GASOLINEROS DE MEXICO, S.A. DE C.V."}}, {"geometry": {"coordinates": [-102.2924, 21.91625], "type": "Point"}, "type": "Feature", "properties": {"description": "regular: 20.1 - Actualizado el 2019-02-19 00:00:00", "image": "icogas.png", "title": "ESTACION DE SERVICIO AUTOMOTRIZ DEL NORTE SA DE CV"}}, {"geometry": {"coordinates": [-102.3353, 21.86349], "type": "Point"}, "type": "Feature", "properties": {"description": "regular: 20.1 - Actualizado el 2019-02-19 20:00:00", "image": "icogas.png", "title": "SERVICIO PETROJUELOS S.A. DE C.V."}}, {"geometry": {"coordinates": [-102.2812, 21.87701], "type": "Point"}, "type": "Feature", "properties": {"description": "regular: 20.14 - Actualizado el 2019-02-20 06:30:00", "image": "icogas.png", "title": "SERVICIOS GUZMAN, S. A. "}}, {"geometry": {"coordinates": [-102.3368, 21.88268], "type": "Point"}, "type": "Feature", "properties": {"description": "regular: 20.17 - Actualizado el 2019-02-20 06:00:00", "image": "icogas.png", "title": "Multiservicio La Villita S.A. de C.V."}}, {"geometry": {"coordinates": [-102.3008, 21.86623], "type": "Point"}, "type": "Feature", "properties": {"description": "regular: 20.19 - Actualizado el 2019-02-20 00:00:00", "image": "icogas.png", "title": "GASOLINERA ASTRA SA DE CV"}}, {"geometry": {"coordinates": [-102.3122, 21.87349], "type": "Point"}, "type": "Feature", "properties": {"description": "regular: 20.19, premium: 21.13 - Actualizado el 2019-02-20 00:00:00", "image": "icogas.png", "title": "SERVICIOS DE ALBA O SA DE CV"}}, {"geometry": {"coordinates": [-102.2927, 21.90612], "type": "Point"}, "type": "Feature", "properties": {"description": "regular: 20.19, premium: 21.15 - Actualizado el 2019-02-20 00:00:00", "image": "icogas.png", "title": "SERVICIOS GASOLINEROS DE MEXICO, S.A. DE C.V."}}, {"geometry": {"coordinates": [-102.2926, 21.91474], "type": "Point"}, "type": "Feature", "properties": {"description": "regular: 20.19, premium: 21.15 - Actualizado el 2019-02-20 00:00:00", "image": "icogas.png", "title": "SERVICIOS GASOLINEROS DE MEXICO, S.A. DE C.V."}}, {"geometry": {"coordinates": [-102.307, 21.85827], "type": "Point"}, "type": "Feature", "properties": {"description": "regular: 20.25, premium: 21.19 - Actualizado el 2019-02-20 00:00:00", "image": "icogas.png", "title": "SERVICIO AGUITAS S.A. DE C.V."}}, {"geometry": {"coordinates": [-102.2888, 21.88947], "type": "Point"}, "type": "Feature", "properties": {"description": "regular: 20.25, premium: 21.2 - Actualizado el 2019-02-20 00:00:00", "image": "icogas.png", "title": "SERVICIO MARTIN SA DE CV"}}, {"geometry": {"coordinates": [-102.3053, 21.89668], "type": "Point"}, "type": "Feature", "properties": {"description": "regular: 20.26 - Actualizado el 2019-02-19 00:00:00", "image": "icogas.png", "title": "SERVICIO AVENIDA, S.A. DE C.V."}}, {"geometry": {"coordinates": [-102.313, 21.88589], "type": "Point"}, "type": "Feature", "properties": {"description": "regular: 20.29, premium: 21.26 - Actualizado el 2019-02-20 00:00:00", "image": "icogas.png", "title": "SERVICIOS GASOLINEROS DE MEXICO, S.A. DE C.V."}}, {"geometry": {"coordinates": [-102.289, 21.90195], "type": "Point"}, "type": "Feature", "properties": {"description": "regular: 20.29, premium: 21.26 - Actualizado el 2019-02-20 00:00:00", "image": "icogas.png", "title": "SERVICIOS GASOLINEROS DE MEXICO, S.A. DE C.V."}}, {"geometry": {"coordinates": [-102.3011, 21.89865], "type": "Point"}, "type": "Feature", "properties": {"description": "regular: 20.32 - Actualizado el 2019-02-20 00:00:00", "image": "icogas.png", "title": "SERVIGAZ ARBOLEDAS SA DE CV"}}, {"geometry": {"coordinates": [-102.2943, 21.86792], "type": "Point"}, "type": "Feature", "properties": {"description": "regular: 20.37, premium: 21.29 - Actualizado el 2019-02-20 00:00:00", "image": "icogas.png", "title": "SERVICIOS GASOLINEROS DE MEXICO, S.A. DE C.V."}}, {"geometry": {"coordinates": [-102.2995, 21.85934], "type": "Point"}, "type": "Feature", "properties": {"description": "regular: 20.37, premium: 21.29 - Actualizado el 2019-02-20 00:00:00", "image": "icogas.png", "title": "SERVICIOS GASOLINEROS DE MEXICO, S.A. DE C.V."}}, {"geometry": {"coordinates": [-102.3277, 21.87273], "type": "Point"}, "type": "Feature", "properties": {"description": "regular: 20.39 - Actualizado el 2019-02-20 09:41:00", "image": "icogas.png", "title": "PAMHER SERVICIO, S.A. DE C.V."}}, {"geometry": {"coordinates": [-102.2989, 21.85986], "type": "Point"}, "type": "Feature", "properties": {"description": "regular: 20.53 - Actualizado el 2019-02-20 00:00:00", "image": "icogas.png", "title": "MEGA GASOLINERAS S.A DE C.V"}}, {"geometry": {"coordinates": [-102.2815, 21.86706], "type": "Point"}, "type": "Feature", "properties": {"description": "regular: 20.79 - Actualizado el 2019-02-19 00:01:00", "image": "icogas.png", "title": "SERVICIO AGUASCALIENTES, SA"}}, {"geometry": {"coordinates": [-102.3169, 21.90174], "type": "Point"}, "type": "Feature", "properties": {"description": "regular: 20.89, diesel: 22.92 - Actualizado el 2019-02-19 00:05:00", "image": "icogas.png", "title": "RED SIGLO XXI SA DE CV"}}]}